{"pk": 1904, "model": "vp.address", "fields": {"city": null, "display_address": null, "house_number": "2601", "state": null, "street": "Sherman Avenue NW", "postal_code": null}}{"pk": 1904, "model": "vp.location", "fields": {"phone_number": null, "website": null, "open_street_map_id": 738190949, "name": "Chuck's Market", "product_categories": [3], "address": 1904, "latitude": 38.924032, "created_by": 1, "location_types": [1], "longitude": -77.0252682}}{"pk": 1905, "model": "vp.address", "fields": {"city": null, "display_address": null, "house_number": "2628", "state": null, "street": "11th Street Northwest", "postal_code": null}}{"pk": 1905, "model": "vp.location", "fields": {"phone_number": null, "website": null, "open_street_map_id": 738190921, "name": "Fairmont Market", "product_categories": [3], "address": 1905, "latitude": 38.9245608, "created_by": 1, "location_types": [1], "longitude": -77.0272485}}{"pk": 1906, "model": "vp.address", "fields": {"city": null, "display_address": null, "house_number": "2833", "state": null, "street": "11th Street Northwest", "postal_code": "20009"}}{"pk": 1906, "model": "vp.location", "fields": {"phone_number": null, "website": null, "open_street_map_id": 738190955, "name": "Sonya's Market", "product_categories": [3], "address": 1906, "latitude": 38.9266522, "created_by": 1, "location_types": [1], "longitude": -77.0267989}}{"pk": 1907, "model": "vp.address", "fields": {"city": "Washington", "display_address": null, "house_number": "944", "state": "DC", "street": "Florida Avenue Northwest", "postal_code": null}}{"pk": 1907, "model": "vp.location", "fields": {"phone_number": null, "website": null, "open_street_map_id": 738190930, "name": "Darnell's", "product_categories": [], "address": 1907, "latitude": 38.9193138, "created_by": 1, "location_types": [2], "longitude": -77.0251795}}{"pk": 1908, "model": "vp.address", "fields": {"city": null, "display_address": null, "house_number": "2200", "state": null, "street": "Flagler Place NW", "postal_code": null}}{"pk": 1908, "model": "vp.location", "fields": {"phone_number": null, "website": null, "open_street_map_id": 740376922, "name": "Flagler Market", "product_categories": [3], "address": 1908, "latitude": 38.9193027, "created_by": 1, "location_types": [1], "longitude": -77.0137891}}{"pk": 1909, "model": "vp.address", "fields": {"city": null, "display_address": null, "house_number": "2633", "state": null, "street": "Sherman Avenue NW", "postal_code": null}}{"pk": 1909, "model": "vp.location", "fields": {"phone_number": null, "website": null, "open_street_map_id": 738190947, "name": "Fairmont Liquor & Grocery", "product_categories": [1], "address": 1909, "latitude": 38.9248063, "created_by": 1, "location_types": [1], "longitude": -77.0253853}}{"pk": 1910, "model": "vp.address", "fields": {"city": null, "display_address": null, "house_number": "2901", "state": null, "street": "Sherman Avenue Northwest", "postal_code": null}}{"pk": 1910, "model": "vp.location", "fields": {"phone_number": null, "website": null, "open_street_map_id": 738190959, "name": "Harvard Liquors", "product_categories": [1], "address": 1910, "latitude": 38.9269813, "created_by": 1, "location_types": [1], "longitude": -77.0256853}}{"pk": 1911, "model": "vp.address", "fields": {"city": null, "display_address": null, "house_number": "3001", "state": null, "street": "Sherman Avenue Northwest", "postal_code": null}}{"pk": 1911, "model": "vp.location", "fields": {"phone_number": null, "website": null, "open_street_map_id": 738190923, "name": "Stop & Go Market", "product_categories": [3], "address": 1911, "latitude": 38.9279649, "created_by": 1, "location_types": [1], "longitude": -77.0258321}}{"pk": 1912, "model": "vp.address", "fields": {"city": null, "display_address": null, "house_number": "2250", "state": null, "street": "Sherman Avenue Northwest", "postal_code": null}}{"pk": 1912, "model": "vp.location", "fields": {"phone_number": null, "website": null, "open_street_map_id": 738190916, "name": "Daily Fish Of Chesapeake", "product_categories": [], "address": 1912, "latitude": 38.9201562, "created_by": 1, "location_types": [3], "longitude": -77.0253897}}{"pk": 1913, "model": "vp.address", "fields": {"city": null, "display_address": null, "house_number": "1100", "state": null, "street": "Florida Avenue Northwest", "postal_code": null}}{"pk": 1913, "model": "vp.location", "fields": {"phone_number": null, "website": "http://floridaavenuegrill.com/", "open_street_map_id": 810774997, "name": "Florida Avenue Grill", "product_categories": [], "address": 1913, "latitude": 38.9206235, "created_by": 1, "location_types": [3], "longitude": -77.0273807}}{"pk": 1914, "model": "vp.address", "fields": {"city": "Washington", "display_address": null, "house_number": "2301", "state": "DC", "street": "Georgia Avenue Northwest", "postal_code": "20001"}}{"pk": 1914, "model": "vp.location", "fields": {"phone_number": null, "website": null, "open_street_map_id": 876097178, "name": "China Wonder", "product_categories": [], "address": 1914, "latitude": 38.9203486, "created_by": 1, "location_types": [3], "longitude": -77.0217667}}{"pk": 1915, "model": "vp.address", "fields": {"city": "Washington", "display_address": null, "house_number": "2301", "state": "DC", "street": "Georgia Avenue Northwest", "postal_code": "20001"}}{"pk": 1915, "model": "vp.location", "fields": {"phone_number": null, "website": null, "open_street_map_id": 876097754, "name": "Custom Fuel", "product_categories": [], "address": 1915, "latitude": 38.9204339, "created_by": 1, "location_types": [3], "longitude": -77.0218124}}{"pk": 1916, "model": "vp.address", "fields": {"city": "Washington", "display_address": null, "house_number": "2301", "state": "DC", "street": "Georgia Avenue Northwest", "postal_code": "20001"}}{"pk": 1916, "model": "vp.location", "fields": {"phone_number": null, "website": null, "open_street_map_id": 876088399, "name": "Food Corner Kabob & Rotisserie", "product_categories": [], "address": 1916, "latitude": 38.9205156, "created_by": 1, "location_types": [3], "longitude": -77.0218261}}{"pk": 1917, "model": "vp.address", "fields": {"city": "Washington", "display_address": null, "house_number": "2301", "state": "DC", "street": "Georgia Avenue Northwest", "postal_code": "20001"}}{"pk": 1917, "model": "vp.location", "fields": {"phone_number": null, "website": null, "open_street_map_id": 876101668, "name": "Negril", "product_categories": [], "address": 1917, "latitude": 38.9202491, "created_by": 1, "location_types": [3], "longitude": -77.0217804}}{"pk": 1918, "model": "vp.address", "fields": {"city": null, "display_address": null, "house_number": null, "state": null, "street": null, "postal_code": null}}{"pk": 1918, "model": "vp.location", "fields": {"phone_number": null, "website": null, "open_street_map_id": 2788370135, "name": "Market 77", "product_categories": [3], "address": 1918, "latitude": 38.9288358, "created_by": 1, "location_types": [1], "longitude": -77.0230438}}{"pk": 1919, "model": "vp.address", "fields": {"city": null, "display_address": null, "house_number": null, "state": null, "street": null, "postal_code": null}}{"pk": 1919, "model": "vp.location", "fields": {"phone_number": null, "website": null, "open_street_map_id": 2804654801, "name": "Bravo", "product_categories": [], "address": 1919, "latitude": 38.927789, "created_by": 1, "location_types": [2], "longitude": -77.022867}}{"pk": 1920, "model": "vp.address", "fields": {"city": null, "display_address": null, "house_number": null, "state": null, "street": null, "postal_code": null}}{"pk": 1920, "model": "vp.location", "fields": {"phone_number": null, "website": null, "open_street_map_id": 2822855309, "name": "Mama Chuy", "product_categories": [], "address": 1920, "latitude": 38.9248106, "created_by": 1, "location_types": [3], "longitude": -77.0228733}}{"pk": 1921, "model": "vp.address", "fields": {"city": null, "display_address": null, "house_number": null, "state": null, "street": null, "postal_code": null}}{"pk": 1921, "model": "vp.location", "fields": {"phone_number": null, "website": null, "open_street_map_id": 2822855310, "name": "Dulcinea", "product_categories": [], "address": 1921, "latitude": 38.9247629, "created_by": 1, "location_types": [3], "longitude": -77.0228687}}{"pk": 1922, "model": "vp.address", "fields": {"city": null, "display_address": null, "house_number": null, "state": null, "street": null, "postal_code": null}}{"pk": 1922, "model": "vp.location", "fields": {"phone_number": null, "website": null, "open_street_map_id": 2823718459, "name": "Kokeb", "product_categories": [], "address": 1922, "latitude": 38.9285636, "created_by": 1, "location_types": [3], "longitude": -77.0229956}}{"pk": 1923, "model": "vp.address", "fields": {"city": null, "display_address": null, "house_number": null, "state": null, "street": null, "postal_code": null}}{"pk": 1923, "model": "vp.location", "fields": {"phone_number": null, "website": null, "open_street_map_id": 2922821803, "name": "Woodlands Vegan Bistro", "product_categories": [], "address": 1923, "latitude": 38.9278237, "created_by": 1, "location_types": [3], "longitude": -77.0233006}}{"pk": 1924, "model": "vp.address", "fields": {"city": null, "display_address": null, "house_number": null, "state": null, "street": null, "postal_code": null}}{"pk": 1924, "model": "vp.location", "fields": {"phone_number": null, "website": null, "open_street_map_id": 2956277190, "name": "Sonya's", "product_categories": [3], "address": 1924, "latitude": 38.9256687, "created_by": 1, "location_types": [1], "longitude": -77.0268265}}{"pk": 1925, "model": "vp.address", "fields": {"city": "Washington", "display_address": null, "house_number": "2626", "state": "DC", "street": "Georgia Avenue Northwest", "postal_code": "20001"}}{"pk": 1925, "model": "vp.location", "fields": {"phone_number": null, "website": null, "open_street_map_id": 2986421303, "name": "Howard mini store", "product_categories": [3], "address": 1925, "latitude": 38.9249529, "created_by": 1, "location_types": [1], "longitude": -77.0229292}}{"pk": 1926, "model": "vp.address", "fields": {"city": "Washington", "display_address": null, "house_number": "2628a", "state": "DC", "street": "Georgia Avenue Northwest", "postal_code": "20001"}}{"pk": 1926, "model": "vp.location", "fields": {"phone_number": null, "website": null, "open_street_map_id": 2986421304, "name": "GII Lounge", "product_categories": [], "address": 1926, "latitude": 38.9250019, "created_by": 1, "location_types": [2], "longitude": -77.0228621}}{"pk": 1927, "model": "vp.address", "fields": {"city": "Washington", "display_address": null, "house_number": "2628b", "state": "DC", "street": "Georgia Avenue Northwest", "postal_code": "20001"}}{"pk": 1927, "model": "vp.location", "fields": {"phone_number": null, "website": null, "open_street_map_id": 2986421306, "name": "Salt  and Pepper grill", "product_categories": [], "address": 1927, "latitude": 38.9250421, "created_by": 1, "location_types": [3], "longitude": -77.0228821}}{"pk": 1928, "model": "vp.address", "fields": {"city": "Washington", "display_address": null, "house_number": null, "state": "DC", "street": "Euclid Street Northwest", "postal_code": "20001"}}{"pk": 1928, "model": "vp.location", "fields": {"phone_number": null, "website": null, "open_street_map_id": 3131618493, "name": null, "product_categories": [], "address": 1928, "latitude": 38.9242966, "created_by": 1, "location_types": [3], "longitude": -77.0230341}}{"pk": 1929, "model": "vp.address", "fields": {"city": "Washington", "display_address": null, "house_number": "3819", "state": "DC", "street": "Georgia Avenue Northwest", "postal_code": null}}{"pk": 1929, "model": "vp.location", "fields": {"phone_number": null, "website": null, "open_street_map_id": 737145431, "name": "Davis Market", "product_categories": [3], "address": 1929, "latitude": 38.9382854, "created_by": 1, "location_types": [1], "longitude": -77.0243745}}{"pk": 1930, "model": "vp.address", "fields": {"city": "Washington", "display_address": null, "house_number": "3583", "state": "DC", "street": "Warder Street Northwest", "postal_code": null}}{"pk": 1930, "model": "vp.location", "fields": {"phone_number": null, "website": null, "open_street_map_id": 737145413, "name": "Gee's Market", "product_categories": [3], "address": 1930, "latitude": 38.9348606, "created_by": 1, "location_types": [1], "longitude": -77.0207947}}{"pk": 1931, "model": "vp.address", "fields": {"city": null, "display_address": null, "house_number": "3713", "state": null, "street": "New Hampshire Avenue Northwest", "postal_code": null}}{"pk": 1931, "model": "vp.location", "fields": {"phone_number": null, "website": null, "open_street_map_id": 737145405, "name": "Family Food & Delicatessen Store", "product_categories": [3], "address": 1931, "latitude": 38.9367762, "created_by": 1, "location_types": [1], "longitude": -77.023694}}{"pk": 1932, "model": "vp.address", "fields": {"city": null, "display_address": null, "house_number": "3306", "state": null, "street": "Georgia Avenue Northwest", "postal_code": null}}{"pk": 1932, "model": "vp.location", "fields": {"phone_number": null, "website": null, "open_street_map_id": 738190954, "name": "Gray's Market", "product_categories": [3], "address": 1932, "latitude": 38.9312793, "created_by": 1, "location_types": [1], "longitude": -77.0237589}}{"pk": 1933, "model": "vp.address", "fields": {"city": null, "display_address": null, "house_number": "646", "state": null, "street": "Rock Creek Church Road Northwest", "postal_code": null}}{"pk": 1933, "model": "vp.location", "fields": {"phone_number": null, "website": null, "open_street_map_id": 737145408, "name": "Rock Creek Market", "product_categories": [3], "address": 1933, "latitude": 38.9368538, "created_by": 1, "location_types": [1], "longitude": -77.0211677}}{"pk": 1934, "model": "vp.address", "fields": {"city": null, "display_address": null, "house_number": "3213", "state": null, "street": "6th Street Northwest", "postal_code": null}}{"pk": 1934, "model": "vp.location", "fields": {"phone_number": null, "website": null, "open_street_map_id": 737145443, "name": "Spruill's Convenience Store", "product_categories": [3], "address": 1934, "latitude": 38.930765, "created_by": 1, "location_types": [1], "longitude": -77.0211675}}{"pk": 1935, "model": "vp.address", "fields": {"city": "Washington", "display_address": null, "house_number": "3504", "state": "DC", "street": "Georgia Avenue Northwest", "postal_code": null}}{"pk": 1935, "model": "vp.location", "fields": {"phone_number": null, "website": null, "open_street_map_id": 738190958, "name": "Giant Liquors", "product_categories": [1], "address": 1935, "latitude": 38.93323, "created_by": 1, "location_types": [1], "longitude": -77.024183}}{"pk": 1936, "model": "vp.address", "fields": {"city": "Washington", "display_address": null, "house_number": "3210", "state": "DC", "street": "Georgia Avenue Northwest", "postal_code": null}}{"pk": 1936, "model": "vp.location", "fields": {"phone_number": null, "website": null, "open_street_map_id": 738190963, "name": "Petworth Liquors", "product_categories": [1], "address": 1936, "latitude": 38.9303678, "created_by": 1, "location_types": [1], "longitude": -77.0237209}}{"pk": 1937, "model": "vp.address", "fields": {"city": null, "display_address": null, "house_number": "1326", "state": null, "street": "Park Road Northwest", "postal_code": null}}{"pk": 1937, "model": "vp.location", "fields": {"phone_number": null, "website": null, "open_street_map_id": 738190925, "name": "El Rinconcito Cafe", "product_categories": [], "address": 1937, "latitude": 38.9307195, "created_by": 1, "location_types": [3], "longitude": -77.0307489}}{"pk": 1938, "model": "vp.address", "fields": {"city": "Washington", "display_address": null, "house_number": "3128", "state": "DC", "street": "Georgia Avenue Northwest", "postal_code": "20001"}}{"pk": 1938, "model": "vp.location", "fields": {"phone_number": null, "website": null, "open_street_map_id": 738190943, "name": "Georgia Avenue Market", "product_categories": [3], "address": 1938, "latitude": 38.929844, "created_by": 1, "location_types": [1], "longitude": -77.0238236}}{"pk": 1939, "model": "vp.address", "fields": {"city": null, "display_address": null, "house_number": "3614", "state": null, "street": "Georgia Avenue Northwest", "postal_code": null}}{"pk": 1939, "model": "vp.location", "fields": {"phone_number": null, "website": null, "open_street_map_id": 738190934, "name": "Lion's Liquors", "product_categories": [1], "address": 1939, "latitude": 38.9346252, "created_by": 1, "location_types": [1], "longitude": -77.0243518}}{"pk": 1940, "model": "vp.address", "fields": {"city": null, "display_address": null, "house_number": "3301", "state": null, "street": "11th Street Northwest", "postal_code": null}}{"pk": 1940, "model": "vp.location", "fields": {"phone_number": null, "website": null, "open_street_map_id": 738190915, "name": "Arthurs Grocery", "product_categories": [2], "address": 1940, "latitude": 38.9308997, "created_by": 1, "location_types": [1], "longitude": -77.027847}}{"pk": 1941, "model": "vp.address", "fields": {"city": "Washington", "display_address": null, "house_number": "3634", "state": "DC", "street": "Georgia Avenue Northwest", "postal_code": null}}{"pk": 1941, "model": "vp.location", "fields": {"phone_number": null, "website": null, "open_street_map_id": 738190936, "name": "Looking Glass Lounge", "product_categories": [], "address": 1941, "latitude": 38.9350298, "created_by": 1, "location_types": [2], "longitude": -77.0243606}}{"pk": 1942, "model": "vp.address", "fields": {"city": null, "display_address": null, "house_number": "3582", "state": null, "street": "13th Street Northwest", "postal_code": null}}{"pk": 1942, "model": "vp.location", "fields": {"phone_number": null, "website": null, "open_street_map_id": 738190957, "name": "13th Street Market", "product_categories": [3], "address": 1942, "latitude": 38.9344672, "created_by": 1, "location_types": [1], "longitude": -77.0299674}}{"pk": 1943, "model": "vp.address", "fields": {"city": "Washington", "display_address": null, "house_number": "3108", "state": "DC", "street": "Georgia Avenue Northwest", "postal_code": "20001"}}{"pk": 1943, "model": "vp.location", "fields": {"phone_number": null, "website": null, "open_street_map_id": 738190950, "name": "Kusa Market", "product_categories": [3], "address": 1943, "latitude": 38.9293998, "created_by": 1, "location_types": [1], "longitude": -77.0235389}}{"pk": 1944, "model": "vp.address", "fields": {"city": null, "display_address": null, "house_number": "3410", "state": null, "street": "11th Street Northwest", "postal_code": null}}{"pk": 1944, "model": "vp.location", "fields": {"phone_number": "+12023160650", "website": "http://kangaroodc.com/", "open_street_map_id": 738190942, "name": "Kangaroo Boxing Club", "product_categories": [], "address": 1944, "latitude": 38.9321428, "created_by": 1, "location_types": [3], "longitude": -77.0285364}}{"pk": 1945, "model": "vp.address", "fields": {"city": null, "display_address": null, "house_number": "3400", "state": null, "street": "13th Street Northwest", "postal_code": null}}{"pk": 1945, "model": "vp.location", "fields": {"phone_number": null, "website": null, "open_street_map_id": 738190926, "name": "Park Market", "product_categories": [3], "address": 1945, "latitude": 38.931466, "created_by": 1, "location_types": [1], "longitude": -77.0299532}}{"pk": 1946, "model": "vp.address", "fields": {"city": "Washington", "display_address": null, "house_number": "1101", "state": null, "street": "11th Street Northwest", "postal_code": "20009"}}{"pk": 1946, "model": "vp.location", "fields": {"phone_number": null, "website": "http://www.thewonderlandballroom.com/", "open_street_map_id": 738190941, "name": "The Wonderland Ballroom", "product_categories": [], "address": 1946, "latitude": 38.9299311, "created_by": 1, "location_types": [2], "longitude": -77.0279842}}{"pk": 1947, "model": "vp.address", "fields": {"city": "Washington", "display_address": null, "house_number": "3624", "state": "DC", "street": "Georgia Avenue Northwest", "postal_code": "20001"}}{"pk": 1947, "model": "vp.location", "fields": {"phone_number": null, "website": null, "open_street_map_id": 829736502, "name": "Manny & Olga's", "product_categories": [], "address": 1947, "latitude": 38.9347805, "created_by": 1, "location_types": [3], "longitude": -77.0243112}}{"pk": 1948, "model": "vp.address", "fields": {"city": "Washington", "display_address": null, "house_number": "3414", "state": "DC", "street": "Georgia Avenue Northwest", "postal_code": "20010"}}{"pk": 1948, "model": "vp.location", "fields": {"phone_number": null, "website": null, "open_street_map_id": 829741008, "name": "Dollar General Merchandice", "product_categories": [3], "address": 1948, "latitude": 38.9324625, "created_by": 1, "location_types": [1], "longitude": -77.0239719}}{"pk": 1949, "model": "vp.address", "fields": {"city": null, "display_address": null, "house_number": null, "state": null, "street": null, "postal_code": null}}{"pk": 1949, "model": "vp.location", "fields": {"phone_number": null, "website": null, "open_street_map_id": 1784870447, "name": "Fish in the Neighborhood", "product_categories": [], "address": 1949, "latitude": 38.934671, "created_by": 1, "location_types": [3], "longitude": -77.0238488}}{"pk": 1950, "model": "vp.address", "fields": {"city": null, "display_address": null, "house_number": null, "state": null, "street": null, "postal_code": null}}{"pk": 1950, "model": "vp.location", "fields": {"phone_number": null, "website": null, "open_street_map_id": 1937053208, "name": "D.C. Reynolds", "product_categories": [], "address": 1950, "latitude": 38.9348308, "created_by": 1, "location_types": [2], "longitude": -77.0243233}}{"pk": 1951, "model": "vp.address", "fields": {"city": null, "display_address": null, "house_number": "3418", "state": null, "street": "11th Street Northwest", "postal_code": null}}{"pk": 1951, "model": "vp.location", "fields": {"phone_number": "202 588 7442", "website": "http://dc-maple.com/", "open_street_map_id": 1948154933, "name": "Maple", "product_categories": [], "address": 1951, "latitude": 38.9323634, "created_by": 1, "location_types": [3], "longitude": -77.0285756}}{"pk": 1952, "model": "vp.address", "fields": {"city": "Washington", "display_address": null, "house_number": "3415", "state": "DC", "street": "11th Street Northwest", "postal_code": "20009"}}{"pk": 1952, "model": "vp.location", "fields": {"phone_number": "202 290 3342", "website": "http://www.thecoupedc.com/", "open_street_map_id": 1948151456, "name": "The Coupe", "product_categories": [], "address": 1952, "latitude": 38.9327327, "created_by": 1, "location_types": [3], "longitude": -77.0282624}}{"pk": 1953, "model": "vp.address", "fields": {"city": null, "display_address": null, "house_number": null, "state": null, "street": null, "postal_code": null}}{"pk": 1953, "model": "vp.location", "fields": {"phone_number": null, "website": null, "open_street_map_id": 1804034216, "name": "Park View Patio", "product_categories": [], "address": 1953, "latitude": 38.9349684, "created_by": 1, "location_types": [2], "longitude": -77.024351}}{"pk": 1954, "model": "vp.address", "fields": {"city": "Washington", "display_address": null, "house_number": "3716", "state": "DC", "street": "Georgia Avenue Northwest", "postal_code": "20009"}}{"pk": 1954, "model": "vp.location", "fields": {"phone_number": null, "website": null, "open_street_map_id": 1784884975, "name": "Sala Thai", "product_categories": [], "address": 1954, "latitude": 38.9366159, "created_by": 1, "location_types": [3], "longitude": -77.0246069}}{"pk": 1955, "model": "vp.address", "fields": {"city": "Washington", "display_address": null, "house_number": "3830", "state": "DC", "street": "Georgia Avenue Northwest", "postal_code": "20011"}}{"pk": 1955, "model": "vp.location", "fields": {"phone_number": "202 722 4023", "website": "Safeway.com", "open_street_map_id": 2951662335, "name": "Safeway", "product_categories": [2], "address": 1955, "latitude": 38.9383742, "created_by": 1, "location_types": [1], "longitude": -77.0249072}}{"pk": 1956, "model": "vp.address", "fields": {"city": "Washington", "display_address": null, "house_number": "3500", "state": "DC", "street": "Georgia Avenue Northwest", "postal_code": "20010"}}{"pk": 1956, "model": "vp.location", "fields": {"phone_number": null, "website": null, "open_street_map_id": 2984617625, "name": "Bell Corner Stop Convenience Store", "product_categories": [3], "address": 1956, "latitude": 38.9329915, "created_by": 1, "location_types": [1], "longitude": -77.0236215}}{"pk": 1957, "model": "vp.address", "fields": {"city": "Washington", "display_address": null, "house_number": "3539", "state": "DC", "street": "Georgia Avenue Northwest", "postal_code": "20010"}}{"pk": 1957, "model": "vp.location", "fields": {"phone_number": null, "website": null, "open_street_map_id": 2984535156, "name": "La Morenita restaurant and carryout", "product_categories": [], "address": 1957, "latitude": 38.9338782, "created_by": 1, "location_types": [3], "longitude": -77.0237301}}{"pk": 1958, "model": "vp.address", "fields": {"city": "Washington", "display_address": null, "house_number": "3410", "state": "DC", "street": "Georgia Avenue Northwest", "postal_code": "20001"}}{"pk": 1958, "model": "vp.location", "fields": {"phone_number": null, "website": null, "open_street_map_id": 2987818487, "name": "Murray's", "product_categories": [2], "address": 1958, "latitude": 38.9322889, "created_by": 1, "location_types": [1], "longitude": -77.0239903}}{"pk": 1959, "model": "vp.address", "fields": {"city": "Washington", "display_address": null, "house_number": "3532", "state": "DC", "street": "Georgia Avenue Northwest", "postal_code": "20001"}}{"pk": 1959, "model": "vp.location", "fields": {"phone_number": null, "website": null, "open_street_map_id": 2987876516, "name": "Chinese Hunan", "product_categories": [], "address": 1959, "latitude": 38.9340294, "created_by": 1, "location_types": [3], "longitude": -77.0241569}}{"pk": 1960, "model": "vp.address", "fields": {"city": "Washington", "display_address": null, "house_number": "705", "state": "DC", "street": "Kenyon Street Northwest", "postal_code": "20001"}}{"pk": 1960, "model": "vp.location", "fields": {"phone_number": null, "website": null, "open_street_map_id": 2987761783, "name": "Morgan's Seafood", "product_categories": [], "address": 1960, "latitude": 38.9301649, "created_by": 1, "location_types": [3], "longitude": -77.0236264}}{"pk": 1961, "model": "vp.address", "fields": {"city": null, "display_address": null, "house_number": null, "state": null, "street": null, "postal_code": null}}{"pk": 1961, "model": "vp.location", "fields": {"phone_number": null, "website": null, "open_street_map_id": 3001374833, "name": "Amanuel Market", "product_categories": [3], "address": 1961, "latitude": 38.936135, "created_by": 1, "location_types": [1], "longitude": -77.02409}}{"pk": 1962, "model": "vp.address", "fields": {"city": "Washington", "display_address": null, "house_number": "3613", "state": "DC", "street": "Georgia Avenue Northwest", "postal_code": "20001"}}{"pk": 1962, "model": "vp.location", "fields": {"phone_number": null, "website": null, "open_street_map_id": 2987901018, "name": "Lions Den", "product_categories": [], "address": 1962, "latitude": 38.9350048, "created_by": 1, "location_types": [3], "longitude": -77.0238351}}{"pk": 1963, "model": "vp.address", "fields": {"city": "Washington", "display_address": null, "house_number": "3322", "state": "DC", "street": "Georgia Avenue Northwest", "postal_code": "20001"}}{"pk": 1963, "model": "vp.location", "fields": {"phone_number": null, "website": null, "open_street_map_id": 2987806417, "name": "Rita's West Indian Carry-out and Restaurant", "product_categories": [], "address": 1963, "latitude": 38.9316184, "created_by": 1, "location_types": [3], "longitude": -77.0238535}}{"pk": 1964, "model": "vp.address", "fields": {"city": null, "display_address": null, "house_number": "450", "state": null, "street": "Lamont Street Northwest", "postal_code": "20010"}}{"pk": 1964, "model": "vp.location", "fields": {"phone_number": null, "website": null, "open_street_map_id": 3024686415, "name": "Lamont Market", "product_categories": [3], "address": 1964, "latitude": 38.9311373, "created_by": 1, "location_types": [1], "longitude": -77.0199129}}{"pk": 1965, "model": "vp.address", "fields": {"city": null, "display_address": null, "house_number": null, "state": null, "street": null, "postal_code": null}}{"pk": 1965, "model": "vp.location", "fields": {"phone_number": null, "website": null, "open_street_map_id": 3226424061, "name": "Tico", "product_categories": [], "address": 1965, "latitude": 38.9303348, "created_by": 1, "location_types": [3], "longitude": -77.0305195}}