{"pk": 1966, "model": "vp.address", "fields": {"city": "Washington", "display_address": null, "house_number": "4100", "state": "DC", "street": "Georgia Avenue Northwest", "postal_code": "20011"}}{"pk": 1966, "model": "vp.location", "fields": {"phone_number": null, "website": null, "open_street_map_id": 735126557, "name": "Yes! Organic Market", "product_categories": [2], "address": 1966, "latitude": 38.9409985, "created_by": 1, "location_types": [1], "longitude": -77.0255334}}{"pk": 1967, "model": "vp.address", "fields": {"city": "Washington", "display_address": null, "house_number": "4400", "state": "DC", "street": "Georgia Avenue Northwest", "postal_code": "20011"}}{"pk": 1967, "model": "vp.location", "fields": {"phone_number": "202-882-2223", "website": null, "open_street_map_id": 744636070, "name": "Uneeda Market", "product_categories": [3], "address": 1967, "latitude": 38.9441486, "created_by": 1, "location_types": [1], "longitude": -77.026394}}{"pk": 1968, "model": "vp.address", "fields": {"city": "Washington", "display_address": null, "house_number": "4422", "state": "DC", "street": "Georgia Avenue Northwest", "postal_code": "20011"}}{"pk": 1968, "model": "vp.location", "fields": {"phone_number": null, "website": null, "open_street_map_id": 744636059, "name": "Fasika", "product_categories": [], "address": 1968, "latitude": 38.9448527, "created_by": 1, "location_types": [3], "longitude": -77.0265605}}{"pk": 1969, "model": "vp.address", "fields": {"city": null, "display_address": null, "house_number": "200", "state": null, "street": "Upshur Street Northwest", "postal_code": null}}{"pk": 1969, "model": "vp.location", "fields": {"phone_number": null, "website": null, "open_street_map_id": 737145399, "name": "Hitching Post Restaurant", "product_categories": [], "address": 1969, "latitude": 38.942045, "created_by": 1, "location_types": [3], "longitude": -77.013773}}{"pk": 1970, "model": "vp.address", "fields": {"city": null, "display_address": null, "house_number": "233", "state": null, "street": "Upshur Street Northwest", "postal_code": null}}{"pk": 1970, "model": "vp.location", "fields": {"phone_number": null, "website": null, "open_street_map_id": 737145412, "name": "J&B Food Market and Hot Deli Kitchen", "product_categories": [3], "address": 1970, "latitude": 38.9423547, "created_by": 1, "location_types": [1], "longitude": -77.0151196}}{"pk": 1971, "model": "vp.address", "fields": {"city": null, "display_address": null, "house_number": "201", "state": null, "street": "Upshur Street Northwest", "postal_code": null}}{"pk": 1971, "model": "vp.location", "fields": {"phone_number": null, "website": null, "open_street_map_id": 737145418, "name": "El Limone", "product_categories": [], "address": 1971, "latitude": 38.9424086, "created_by": 1, "location_types": [3], "longitude": -77.0138666}}{"pk": 1972, "model": "vp.address", "fields": {"city": null, "display_address": null, "house_number": "829", "state": null, "street": "Upshur Street Northwest", "postal_code": null}}{"pk": 1972, "model": "vp.location", "fields": {"phone_number": null, "website": null, "open_street_map_id": 737145427, "name": "Petworth Citizen", "product_categories": [], "address": 1972, "latitude": 38.9421221, "created_by": 1, "location_types": [3], "longitude": -77.0244814}}{"pk": 1973, "model": "vp.address", "fields": {"city": null, "display_address": null, "house_number": "821", "state": null, "street": "Upshur Street Northwest", "postal_code": null}}{"pk": 1973, "model": "vp.location", "fields": {"phone_number": null, "website": null, "open_street_map_id": 737145445, "name": "Domku", "product_categories": [], "address": 1973, "latitude": 38.9422073, "created_by": 1, "location_types": [3], "longitude": -77.0242246}}{"pk": 1974, "model": "vp.address", "fields": {"city": null, "display_address": null, "house_number": "823", "state": null, "street": "Upshur Street Northwest", "postal_code": null}}{"pk": 1974, "model": "vp.location", "fields": {"phone_number": null, "website": null, "open_street_map_id": 737145410, "name": "Town & Country Market", "product_categories": [3], "address": 1974, "latitude": 38.9421332, "created_by": 1, "location_types": [1], "longitude": -77.0242878}}{"pk": 1975, "model": "vp.address", "fields": {"city": null, "display_address": null, "house_number": "1247", "state": null, "street": "Shepherd Street Northwest", "postal_code": null}}{"pk": 1975, "model": "vp.location", "fields": {"phone_number": null, "website": null, "open_street_map_id": 744636066, "name": "Shepherd Market", "product_categories": [3], "address": 1975, "latitude": 38.9399477, "created_by": 1, "location_types": [1], "longitude": -77.0294793}}{"pk": 1976, "model": "vp.address", "fields": {"city": "Washington", "display_address": null, "house_number": "4231", "state": "DC", "street": "9th Street Northwest", "postal_code": "20011"}}{"pk": 1976, "model": "vp.location", "fields": {"phone_number": null, "website": null, "open_street_map_id": 737145397, "name": "El Torogoz Restaurant", "product_categories": [], "address": 1976, "latitude": 38.9425542, "created_by": 1, "location_types": [3], "longitude": -77.0249138}}{"pk": 1977, "model": "vp.address", "fields": {"city": "Washington", "display_address": null, "house_number": "4414", "state": "DC", "street": "Georgia Avenue Northwest", "postal_code": "20011"}}{"pk": 1977, "model": "vp.location", "fields": {"phone_number": null, "website": null, "open_street_map_id": 836942110, "name": "Fanta Fish and Chicken", "product_categories": [], "address": 1977, "latitude": 38.9446332, "created_by": 1, "location_types": [3], "longitude": -77.0265232}}{"pk": 1978, "model": "vp.address", "fields": {"city": "Washington", "display_address": null, "house_number": "3937", "state": "DC", "street": "Georgia Avenue Northwest", "postal_code": "20011"}}{"pk": 1978, "model": "vp.location", "fields": {"phone_number": "202-829-8427", "website": null, "open_street_map_id": 837827539, "name": "Lawrences 2 Petworth Carry-Out", "product_categories": [], "address": 1978, "latitude": 38.9396097, "created_by": 1, "location_types": [3], "longitude": -77.0247064}}{"pk": 1979, "model": "vp.address", "fields": {"city": null, "display_address": null, "house_number": null, "state": null, "street": null, "postal_code": null}}{"pk": 1979, "model": "vp.location", "fields": {"phone_number": null, "website": null, "open_street_map_id": 2393490489, "name": "corner store", "product_categories": [3], "address": 1979, "latitude": 38.9427981, "created_by": 1, "location_types": [1], "longitude": -77.0249241}}{"pk": 1980, "model": "vp.address", "fields": {"city": null, "display_address": null, "house_number": null, "state": null, "street": null, "postal_code": null}}{"pk": 1980, "model": "vp.location", "fields": {"phone_number": null, "website": null, "open_street_map_id": 2393490888, "name": "corner store", "product_categories": [3], "address": 1980, "latitude": 38.941766, "created_by": 1, "location_types": [1], "longitude": -77.0235424}}{"pk": 1981, "model": "vp.address", "fields": {"city": "Washington", "display_address": null, "house_number": "828", "state": null, "street": "Upshur Street Northwest", "postal_code": "20011"}}{"pk": 1981, "model": "vp.location", "fields": {"phone_number": null, "website": null, "open_street_map_id": 2951662359, "name": "Crane and Turtle", "product_categories": [], "address": 1981, "latitude": 38.9417401, "created_by": 1, "location_types": [3], "longitude": -77.0245377}}{"pk": 1982, "model": "vp.address", "fields": {"city": null, "display_address": null, "house_number": null, "state": null, "street": null, "postal_code": null}}{"pk": 1982, "model": "vp.location", "fields": {"phone_number": null, "website": null, "open_street_map_id": 3282658203, "name": "The Pitch", "product_categories": [], "address": 1982, "latitude": 38.940253, "created_by": 1, "location_types": [2], "longitude": -77.024788}}{"pk": 1983, "model": "vp.address", "fields": {"city": null, "display_address": null, "house_number": "626", "state": null, "street": "Kennedy Street Northwest", "postal_code": null}}{"pk": 1983, "model": "vp.location", "fields": {"phone_number": null, "website": null, "open_street_map_id": 739653615, "name": "Rainbow Market", "product_categories": [3], "address": 1983, "latitude": 38.9562068, "created_by": 1, "location_types": [1], "longitude": -77.0220417}}{"pk": 1984, "model": "vp.address", "fields": {"city": "Washington", "display_address": null, "house_number": "300", "state": "DC", "street": "Kennedy Street Northwest", "postal_code": null}}{"pk": 1984, "model": "vp.location", "fields": {"phone_number": null, "website": null, "open_street_map_id": 739653631, "name": "Northwest Liquors", "product_categories": [1], "address": 1984, "latitude": 38.9563404, "created_by": 1, "location_types": [1], "longitude": -77.01629}}{"pk": 1985, "model": "vp.address", "fields": {"city": null, "display_address": null, "house_number": "620", "state": null, "street": "Kennedy Street Northwest", "postal_code": null}}{"pk": 1985, "model": "vp.location", "fields": {"phone_number": null, "website": null, "open_street_map_id": 739653556, "name": "Roha Liquors", "product_categories": [1], "address": 1985, "latitude": 38.9562133, "created_by": 1, "location_types": [1], "longitude": -77.02183}}{"pk": 1986, "model": "vp.address", "fields": {"city": null, "display_address": null, "house_number": "5008", "state": null, "street": "1st Street Northwest", "postal_code": null}}{"pk": 1986, "model": "vp.location", "fields": {"phone_number": null, "website": null, "open_street_map_id": 737145424, "name": "Fair Liquors", "product_categories": [1], "address": 1986, "latitude": 38.9512267, "created_by": 1, "location_types": [1], "longitude": -77.0123301}}{"pk": 1987, "model": "vp.address", "fields": {"city": "Washington", "display_address": null, "house_number": "104", "state": "DC", "street": "Kennedy Street Northwest", "postal_code": null}}{"pk": 1987, "model": "vp.location", "fields": {"phone_number": null, "website": null, "open_street_map_id": 739653667, "name": "Mixers Lounge", "product_categories": [], "address": 1987, "latitude": 38.9563927, "created_by": 1, "location_types": [2], "longitude": -77.012092}}{"pk": 1988, "model": "vp.address", "fields": {"city": "Washington", "display_address": null, "house_number": "5501", "state": "DC", "street": "1st Street Northwest", "postal_code": null}}{"pk": 1988, "model": "vp.location", "fields": {"phone_number": null, "website": null, "open_street_map_id": 739653586, "name": "Kennedy Liquors", "product_categories": [1], "address": 1988, "latitude": 38.9567692, "created_by": 1, "location_types": [1], "longitude": -77.0113849}}{"pk": 1989, "model": "vp.address", "fields": {"city": "Washington", "display_address": null, "house_number": "100", "state": "DC", "street": "Kennedy Street Northwest", "postal_code": null}}{"pk": 1989, "model": "vp.location", "fields": {"phone_number": null, "website": null, "open_street_map_id": 739653638, "name": "Brightwood Supermarket", "product_categories": [2], "address": 1989, "latitude": 38.9563932, "created_by": 1, "location_types": [1], "longitude": -77.0118455}}{"pk": 1990, "model": "vp.address", "fields": {"city": null, "display_address": null, "house_number": "500", "state": null, "street": "Kennedy Street Northwest", "postal_code": null}}{"pk": 1990, "model": "vp.location", "fields": {"phone_number": null, "website": null, "open_street_map_id": 739653619, "name": "Target Liquor", "product_categories": [1], "address": 1990, "latitude": 38.9562144, "created_by": 1, "location_types": [1], "longitude": -77.0200788}}{"pk": 1991, "model": "vp.address", "fields": {"city": null, "display_address": null, "house_number": "5010", "state": null, "street": "New Hampshire Avenue Northwest", "postal_code": null}}{"pk": 1991, "model": "vp.location", "fields": {"phone_number": null, "website": null, "open_street_map_id": 737145401, "name": "Avenue Supermarket", "product_categories": [2], "address": 1991, "latitude": 38.9513947, "created_by": 1, "location_types": [1], "longitude": -77.0123645}}{"pk": 1992, "model": "vp.address", "fields": {"city": "Washington", "display_address": null, "house_number": "5125", "state": "DC", "street": "Georgia Avenue Northwest", "postal_code": "20011"}}{"pk": 1992, "model": "vp.location", "fields": {"phone_number": null, "website": null, "open_street_map_id": 737145441, "name": "Georgia Line Convenience Store", "product_categories": [3], "address": 1992, "latitude": 38.9527521, "created_by": 1, "location_types": [1], "longitude": -77.0272417}}{"pk": 1993, "model": "vp.address", "fields": {"city": "Washington", "display_address": null, "house_number": "5205", "state": "DC", "street": "Georgia Avenue Northwest", "postal_code": "20011"}}{"pk": 1993, "model": "vp.location", "fields": {"phone_number": null, "website": null, "open_street_map_id": 737145420, "name": "Hamilton Liquors", "product_categories": [1], "address": 1993, "latitude": 38.9531644, "created_by": 1, "location_types": [1], "longitude": -77.0272891}}{"pk": 1994, "model": "vp.address", "fields": {"city": "Washington", "display_address": null, "house_number": "5307", "state": "DC", "street": "Georgia Avenue Northwest", "postal_code": "20011"}}{"pk": 1994, "model": "vp.location", "fields": {"phone_number": "(202) 726-1313", "website": null, "open_street_map_id": 739653626, "name": "Jefferson Liquors", "product_categories": [1], "address": 1994, "latitude": 38.9544167, "created_by": 1, "location_types": [1], "longitude": -77.0275051}}{"pk": 1995, "model": "vp.address", "fields": {"city": null, "display_address": null, "house_number": "701", "state": null, "street": "Kennedy Street Northwest", "postal_code": "20011"}}{"pk": 1995, "model": "vp.location", "fields": {"phone_number": null, "website": null, "open_street_map_id": 3012311756, "name": "Kennedy Street Market", "product_categories": [3], "address": 1995, "latitude": 38.9565357, "created_by": 1, "location_types": [1], "longitude": -77.0225054}}{"pk": 1996, "model": "vp.address", "fields": {"city": null, "display_address": null, "house_number": "5828", "state": null, "street": "Georgia Avenue Northwest", "postal_code": null}}{"pk": 1996, "model": "vp.location", "fields": {"phone_number": null, "website": null, "open_street_map_id": 737143750, "name": "Simple Bar", "product_categories": [], "address": 1996, "latitude": 38.960906, "created_by": 1, "location_types": [2], "longitude": -77.028286}}{"pk": 1997, "model": "vp.address", "fields": {"city": "Washington", "display_address": null, "house_number": "6210", "state": null, "street": "Georgia Avenue Northwest", "postal_code": "20011"}}{"pk": 1997, "model": "vp.location", "fields": {"phone_number": "202-723-0190", "website": null, "open_street_map_id": 737143748, "name": "Serengeti", "product_categories": [], "address": 1997, "latitude": 38.965345, "created_by": 1, "location_types": [2], "longitude": -77.0279692}}{"pk": 1998, "model": "vp.address", "fields": {"city": "Washington", "display_address": null, "house_number": "6220", "state": "DC", "street": "Georgia Avenue Northwest", "postal_code": null}}{"pk": 1998, "model": "vp.location", "fields": {"phone_number": null, "website": null, "open_street_map_id": 737143751, "name": "Victor Liquors", "product_categories": [1], "address": 1998, "latitude": 38.9656074, "created_by": 1, "location_types": [1], "longitude": -77.0278934}}{"pk": 1999, "model": "vp.address", "fields": {"city": null, "display_address": null, "house_number": "5802", "state": null, "street": "Georgia Avenue Northwest", "postal_code": null}}{"pk": 1999, "model": "vp.location", "fields": {"phone_number": null, "website": null, "open_street_map_id": 737143755, "name": "Turntable Restaurant", "product_categories": [], "address": 1999, "latitude": 38.9602691, "created_by": 1, "location_types": [3], "longitude": -77.0283945}}{"pk": 2000, "model": "vp.address", "fields": {"city": "Washington", "display_address": null, "house_number": "6205", "state": "DC", "street": "Georgia Avenue Northwest", "postal_code": "20011"}}{"pk": 2000, "model": "vp.location", "fields": {"phone_number": null, "website": null, "open_street_map_id": 739653548, "name": "Grocery- Lottery, Beer and Wine", "product_categories": [1], "address": 2000, "latitude": 38.9652834, "created_by": 1, "location_types": [1], "longitude": -77.0272527}}{"pk": 2001, "model": "vp.address", "fields": {"city": "Washington", "display_address": null, "house_number": "5916", "state": null, "street": "Georgia Avenue Northwest", "postal_code": "20011"}}{"pk": 2001, "model": "vp.location", "fields": {"phone_number": "202-726-1946", "website": null, "open_street_map_id": 737143726, "name": "Brightwood Liquors", "product_categories": [1], "address": 2001, "latitude": 38.9617388, "created_by": 1, "location_types": [1], "longitude": -77.0282475}}{"pk": 2002, "model": "vp.address", "fields": {"city": null, "display_address": null, "house_number": "1206", "state": null, "street": "Underwood Street Northwest", "postal_code": null}}{"pk": 2002, "model": "vp.location", "fields": {"phone_number": null, "website": null, "open_street_map_id": 737143756, "name": "Lena Market", "product_categories": [3], "address": 2002, "latitude": 38.9687561, "created_by": 1, "location_types": [1], "longitude": -77.0278294}}{"pk": 2003, "model": "vp.address", "fields": {"city": null, "display_address": null, "house_number": "6500", "state": null, "street": "Chillum Place Northwest", "postal_code": null}}{"pk": 2003, "model": "vp.location", "fields": {"phone_number": null, "website": null, "open_street_map_id": 739653640, "name": "House of Wines", "product_categories": [1], "address": 2003, "latitude": 38.9681505, "created_by": 1, "location_types": [1], "longitude": -77.0129161}}{"pk": 2004, "model": "vp.address", "fields": {"city": null, "display_address": null, "house_number": "5832", "state": null, "street": "Georgia Avenue Northwest", "postal_code": null}}{"pk": 2004, "model": "vp.location", "fields": {"phone_number": null, "website": null, "open_street_map_id": 737143752, "name": "Brightwood Bistro", "product_categories": [], "address": 2004, "latitude": 38.961062, "created_by": 1, "location_types": [3], "longitude": -77.0283601}}{"pk": 2005, "model": "vp.address", "fields": {"city": "Washington", "display_address": null, "house_number": "5900", "state": null, "street": "Georgia Avenue Northwest", "postal_code": "20011"}}{"pk": 2005, "model": "vp.location", "fields": {"phone_number": "202- 829- 3618", "website": null, "open_street_map_id": 737143753, "name": "Missouri Avenue Market", "product_categories": [3], "address": 2005, "latitude": 38.9615177, "created_by": 1, "location_types": [1], "longitude": -77.0284286}}{"pk": 2006, "model": "vp.address", "fields": {"city": null, "display_address": null, "house_number": "6111", "state": null, "street": "Blair Road Northwest", "postal_code": null}}{"pk": 2006, "model": "vp.location", "fields": {"phone_number": null, "website": null, "open_street_map_id": 739653650, "name": "Blair Liquors", "product_categories": [1], "address": 2006, "latitude": 38.9644964, "created_by": 1, "location_types": [1], "longitude": -77.0115484}}{"pk": 2007, "model": "vp.address", "fields": {"city": "Washington", "display_address": null, "house_number": "6303", "state": "DC", "street": "Georgia Avenue Northwest", "postal_code": null}}{"pk": 2007, "model": "vp.location", "fields": {"phone_number": "202-824-6647", "website": null, "open_street_map_id": 739653657, "name": "Haydee's", "product_categories": [], "address": 2007, "latitude": 38.9663393, "created_by": 1, "location_types": [3], "longitude": -77.0273259}}{"pk": 2008, "model": "vp.address", "fields": {"city": "Washington", "display_address": null, "house_number": "6406", "state": "DC", "street": "Georgia Avenue Northwest", "postal_code": "20011"}}{"pk": 2008, "model": "vp.location", "fields": {"phone_number": "202-545-5027", "website": null, "open_street_map_id": 850209259, "name": "Intoto Market", "product_categories": [3], "address": 2008, "latitude": 38.9678187, "created_by": 1, "location_types": [1], "longitude": -77.0277921}}{"pk": 2009, "model": "vp.address", "fields": {"city": "Washington", "display_address": null, "house_number": "5912", "state": null, "street": "Georgia Avenue Northwest", "postal_code": "20011"}}{"pk": 2009, "model": "vp.location", "fields": {"phone_number": null, "website": null, "open_street_map_id": 850210442, "name": "Ge-Ex Grocery", "product_categories": [3], "address": 2009, "latitude": 38.9616537, "created_by": 1, "location_types": [1], "longitude": -77.0282188}}{"pk": 2010, "model": "vp.address", "fields": {"city": "Washington", "display_address": null, "house_number": "6404", "state": "DC", "street": "Georgia Avenue Northwest", "postal_code": "20011"}}{"pk": 2010, "model": "vp.location", "fields": {"phone_number": "202-722-7574", "website": null, "open_street_map_id": 850210379, "name": "Jocelyn's Market la Casa Latina", "product_categories": [3], "address": 2010, "latitude": 38.9677634, "created_by": 1, "location_types": [1], "longitude": -77.027796}}{"pk": 2011, "model": "vp.address", "fields": {"city": null, "display_address": null, "house_number": "6209", "state": null, "street": "Georgia Avenue Northwest", "postal_code": null}}{"pk": 2011, "model": "vp.location", "fields": {"phone_number": null, "website": null, "open_street_map_id": 1067837942, "name": "El Dorado Bread", "product_categories": [], "address": 2011, "latitude": 38.9654095, "created_by": 1, "location_types": [3], "longitude": -77.027278}}{"pk": 2012, "model": "vp.address", "fields": {"city": "Washington", "display_address": null, "house_number": "6215", "state": "DC", "street": "Georgia Avenue Northwest", "postal_code": "20011"}}{"pk": 2012, "model": "vp.location", "fields": {"phone_number": "202-726-0852", "website": null, "open_street_map_id": 1067838903, "name": "China Taste Carryout", "product_categories": [], "address": 2012, "latitude": 38.9655747, "created_by": 1, "location_types": [3], "longitude": -77.0274556}}{"pk": 2013, "model": "vp.address", "fields": {"city": "Washington", "display_address": null, "house_number": "5766", "state": null, "street": "Georgia Avenue Northwest", "postal_code": "20011"}}{"pk": 2013, "model": "vp.location", "fields": {"phone_number": "202- 829-2619", "website": null, "open_street_map_id": 2975798681, "name": "Unsulution Grocery", "product_categories": [2], "address": 2013, "latitude": 38.9601041, "created_by": 1, "location_types": [1], "longitude": -77.0283393}}{"pk": 2014, "model": "vp.address", "fields": {"city": "Washington", "display_address": null, "house_number": "5830", "state": null, "street": "Georgia Avenue Northwest", "postal_code": "20011"}}{"pk": 2014, "model": "vp.location", "fields": {"phone_number": "202- 291- 2595", "website": null, "open_street_map_id": 2975802676, "name": "Chocolate Crust", "product_categories": [], "address": 2014, "latitude": 38.9609634, "created_by": 1, "location_types": [3], "longitude": -77.0282535}}{"pk": 2015, "model": "vp.address", "fields": {"city": "Washington", "display_address": null, "house_number": "6232", "state": "DC", "street": "Georgia Avenue Northwest", "postal_code": "20011"}}{"pk": 2015, "model": "vp.location", "fields": {"phone_number": null, "website": null, "open_street_map_id": 2975867917, "name": "Sheridan International Market", "product_categories": [2], "address": 2015, "latitude": 38.9659254, "created_by": 1, "location_types": [1], "longitude": -77.0278427}}{"pk": 2016, "model": "vp.address", "fields": {"city": "Washington", "display_address": null, "house_number": "6214", "state": null, "street": "Georgia Avenue Northwest", "postal_code": "20011"}}{"pk": 2016, "model": "vp.location", "fields": {"phone_number": null, "website": null, "open_street_map_id": 2975905265, "name": "breakfast lunch and dinner", "product_categories": [], "address": 2016, "latitude": 38.9654757, "created_by": 1, "location_types": [3], "longitude": -77.0278969}}{"pk": 2017, "model": "vp.address", "fields": {"city": "Washington", "display_address": null, "house_number": "6224", "state": "DC", "street": "Georgia Avenue Northwest", "postal_code": "20011"}}{"pk": 2017, "model": "vp.location", "fields": {"phone_number": null, "website": null, "open_street_map_id": 2975856787, "name": "Enat Ethopia Grocery", "product_categories": [2], "address": 2017, "latitude": 38.965717, "created_by": 1, "location_types": [1], "longitude": -77.0278766}}{"pk": 2018, "model": "vp.address", "fields": {"city": "Washington", "display_address": null, "house_number": "6226", "state": "DC", "street": "Georgia Avenue Northwest", "postal_code": "20011"}}{"pk": 2018, "model": "vp.location", "fields": {"phone_number": "202-722-1205", "website": null, "open_street_map_id": 2975857635, "name": "Wow market", "product_categories": [2], "address": 2018, "latitude": 38.9657594, "created_by": 1, "location_types": [1], "longitude": -77.0278686}}{"pk": 2019, "model": "vp.address", "fields": {"city": "Washington", "display_address": null, "house_number": "5929", "state": "DC", "street": "Georgia Avenue Northwest", "postal_code": "20011"}}{"pk": 2019, "model": "vp.location", "fields": {"phone_number": "202-714-3770", "website": "http://www.walmart.com", "open_street_map_id": 2975839306, "name": "Walmart Supercenter", "product_categories": [2], "address": 2019, "latitude": 38.9617484, "created_by": 1, "location_types": [1], "longitude": -77.0273999}}